"index","station_name","latlng","lat","lng","district"
"0","捷運橋頭火車站","22.75931,120.30988","22.75931","120.30988","高雄市橋頭區"
"0","高雄高商(五褔二路)","22.62546,120.30784","22.62546","120.30784","高雄市新興區"
"0","澄清湖","22.65331,120.34949","22.65331","120.34949","高雄市鳥松區"
"0","察哈爾街口","22.64692,120.29658","22.64692","120.29658","高雄市三民區"
"0","臺鐵鳳山站","22.63155,120.35767","22.63155","120.35767","高雄市鳳山區"
"0","下勤和","23.16805,120.7756","23.16805","120.7756","高雄市桃源區"
"0","衛武社區","22.62695,120.34431","22.62695","120.34431","高雄市苓雅區"
"0","美術館(明誠四路)","22.66205,120.28635","22.66205","120.28635","高雄市鼓山區"
"0","五福民權路口(高雄高商)","22.62615,120.31039","22.62615","120.31039","高雄市新興區"
"0","安東街口(十全二路)","22.64599,120.29533","22.64599","120.29533","高雄市三民區"
"0","中央圓環","22.72192,120.30482","22.72192","120.30482","高雄市楠梓區"
"0","明正國小(捷運草衙站)","22.58118,120.3277","22.58118","120.3277","高雄市前鎮區"
"0","文學院","22.63374,120.26131","22.63374","120.26131","高雄市鼓山區"
"0","中鴻鋼鐵(岡山)","22.82472,120.29884","22.82472","120.29884","高雄市岡山區"
"0","臺鐵正義站(澄清路)","22.63416,120.34456","22.63416","120.34456","高雄市三民區"
"0","重和路口","22.68218,120.3142","22.68218","120.3142","高雄市左營區"
"0","中賢里","22.90801,120.20602","22.90801","120.20602","高雄市湖內區"
"0","中興(新發公路)","22.99612,120.64309","22.99612","120.64309","高雄市六龜區"
"0","育德街口","22.81186,120.28008","22.81186","120.28008","高雄市岡山區"
"0","四維國小(民權一路)","22.62274,120.31216","22.62274","120.31216","高雄市苓雅區"
"0","輕軌凱旋公園站(中正一路)","22.62996,120.32408","22.62996","120.32408","高雄市苓雅區"
"0","茄萣站","22.86876,120.19884","22.86876","120.19884","高雄市茄萣區"
"0","五福中正路口","22.62973,120.32064","22.62973","120.32064","高雄市苓雅區"
"0","木業公司(六龜)","23.00046,120.64495","23.00046","120.64495","高雄市六龜區"
"0","大寮農會","22.60159,120.39788","22.60159","120.39788","高雄市大寮區"
"0","美崙山","23.06753,120.68565","23.06753","120.68565","高雄市六龜區"
"0","中崙一路","22.6009,120.35051","22.6009","120.35051","高雄市鳳山區"
"0","衛武營都會公園(南京路)","22.61798,120.34572","22.61798","120.34572","高雄市鳳山區"
"0","必勝路","22.67543,120.284","22.67543","120.284","高雄市左營區"
"0","復華中學","22.6205,120.31417","22.6205","120.31417","高雄市苓雅區"
"0","鳳山行政中心(澄清路)","22.63032,120.34451","22.63032","120.34451","高雄市鳳山區"
"0","正義高中","22.60113,120.34013","22.60113","120.34013","高雄市鳳山區"
"0","捷運楠梓加工區站","22.71835,120.30649","22.71835","120.30649","高雄市楠梓區"
"0","先鋒路","22.67865,120.28271","22.67865","120.28271","高雄市左營區"
"0","金屬中心","22.71441,120.32599","22.71441","120.32599","高雄市楠梓區"
"0","監理所(高楠路)","22.73266,120.32024","22.73266","120.32024","高雄市楠梓區"
"0","成功南路","22.7506,120.31406","22.7506","120.31406","高雄市橋頭區"
"0","新庄(新莊路)","22.74556,120.30183","22.74556","120.30183","高雄市橋頭區"
"0","高雄車站(中山路)","22.63682,120.30221","22.63682","120.30221","高雄市三民區"
"0","鳳南路口","22.59217,120.3404","22.59217","120.3404","高雄市鳳山區"
"0","濟天宮(國慶六街)","22.58758,120.33797","22.58758","120.33797","高雄市前鎮區"
"0","六龜新站(親水公園)","23.00615,120.64858","23.00615","120.64858","高雄市六龜區"
"0","灣子內(岡山)","22.80953,120.28278","22.80953","120.28278","高雄市岡山區"
"0","北嶺墘","22.82115,120.26947","22.82115","120.26947","高雄市路竹區"
"0","味全公司","22.82728,120.26658","22.82728","120.26658","高雄市路竹區"
"0","立大食品廠","22.83649,120.26476","22.83649","120.26476","高雄市路竹區"
"0","鳳鳴國小","22.51528,120.35778","22.51528","120.35778","高雄市小港區"
"0","東盟公司","22.84868,120.26247","22.84868","120.26247","高雄市路竹區"
"0","南路竹","22.85523,120.26117","22.85523","120.26117","高雄市路竹區"
"0","路竹","22.859,120.26014","22.859","120.26014","高雄市路竹區"
"0","北路竹","22.86303,120.25795","22.86303","120.25795","高雄市路竹區"
"0","國際商工(輕軌五權國小站)","22.62103,120.32644","22.62103","120.32644","高雄市苓雅區"
"0","高新醫院","22.86554,120.25679","22.86554","120.25679","高雄市路竹區"
"0","中山大仁路口","22.87349,120.25422","22.87349","120.25422","高雄市路竹區"
"0","大湖火車站","22.87771,120.25243","22.87771","120.25243","高雄市湖內區"
"0","橡膠廠","22.59477,120.28243","22.59477","120.28243","高雄市前鎮區"
"0","烏松","22.59842,120.28018","22.59842","120.28018","高雄市前鎮區"
"0","南勢巷站","22.77639,120.41319","22.77639","120.41319","高雄市燕巢區"
"0","台農飼料廠","22.8982,120.23618","22.8982","120.23618","高雄市湖內區"
"0","牛蹄寮(富樂夢觀光工廠)","22.90227,120.2319","22.90227","120.2319","高雄市湖內區"
"0","太爺(湖內國中)","22.90895,120.22739","22.90895","120.22739","高雄市湖內區"
"0","嘉南藥理大學","22.92101,120.22506","22.92101","120.22506","區"
"0","三信家商","22.62199,120.32926","22.62199","120.32926","高雄市苓雅區"
"0","保安里","22.92356,120.22375","22.92356","120.22375","區"
"0","橋頭市場","22.75525,120.31129","22.75525","120.31129","高雄市橋頭區"
"0","台糖花卉中心","22.74092,120.3251","22.74092","120.3251","高雄市楠梓區"
"0","牛稠仔","22.95366,120.21774","22.95366","120.21774","區"
"0","二空新村","22.96123,120.21711","22.96123","120.21711","區"
"0","空軍醫院","22.96553,120.21644","22.96553","120.21644","區"
"0","大同巷","22.96871,120.21598","22.96871","120.21598","區"
"0","大林(大同路二段)","22.97461,120.21436","22.97461","120.21436","區"
"0","大同路","22.97678,120.2139","22.97678","120.2139","區"
"0","南台南","22.98133,120.21137","22.98133","120.21137","區"
"0","五塊厝(三多一路)","22.62288,120.33177","22.62288","120.33177","高雄市苓雅區"
"0","健康路","22.98132,120.20664","22.98132","120.20664","區"
"0","南門路","22.98166,120.20374","22.98166","120.20374","區"
"0","府前路口","22.98814,120.20462","22.98814","120.20462","區"
"0","忠義路","22.99063,120.20264","22.99063","120.20264","區"
"0","西門路二段","22.99521,120.1993","22.99521","120.1993","區"
"0","西門路三段","22.99929,120.20108","22.99929","120.20108","區"
"0","成功路(台南)","22.99848,120.20452","22.99848","120.20452","區"
"0","台南火車站","22.99746,120.21003","22.99746","120.21003","區"
"0","頂烏松","22.59842,120.28018","22.59842","120.28018","高雄市前鎮區"
"0","中洲三路","22.60182,120.27692","22.60182","120.27692","高雄市前鎮區"
"0","自由路(被服廠)","22.62499,120.34559","22.62499","120.34559","高雄市鳳山區"
"0","鳳鳴里","22.51372,120.35934","22.51372","120.35934","高雄市小港區"
"0","七賢二路","22.63478,120.30078","22.63478","120.30078","高雄市新興區"
"0","捷運都會公園站","22.7301,120.32063","22.7301","120.32063","高雄市楠梓區"
"0","民族裕誠路口","22.6649,120.31636","22.6649","120.31636","高雄市三民區"
"0","民族派出所","22.64806,120.31707","22.64806","120.31707","高雄市三民區"
"0","捷運技擊館站","22.62754,120.33421","22.62754","120.33421","高雄市苓雅區"
"0","逢甲路","22.67073,120.48786","22.67073","120.48786","市"
"0","屏東電信局","22.67062,120.48966","22.67062","120.48966","市"
"0","自由路(建華一街口)","22.66687,120.48669","22.66687","120.48669","市"
"0","勞工處","22.66506,120.48213","22.66506","120.48213","市"
"0","自由市場","22.62569,120.35103","22.62569","120.35103","高雄市鳳山區"
"0","大同國小","22.66535,120.47653","22.66535","120.47653","市"
"0","青果社","22.66144,120.46975","22.66144","120.46975","市"
"0","建國路","22.65835,120.46792","22.65835","120.46792","市"
"0","西屏東","22.65452,120.46307","22.65452","120.46307","市"
"0","磚仔窯","22.64215,120.41769","22.64215","120.41769","高雄市大寮區"
"0","鳳屏二路","22.64154,120.4135","22.64154","120.4135","高雄市大寮區"
"0","海邊新田路口","22.61977,120.29211","22.61977","120.29211","高雄市苓雅區"
"0","江山村口","22.64015,120.40512","22.64015","120.40512","高雄市大寮區"
"0","慈惠醫院","22.63868,120.39748","22.63868","120.39748","高雄市大寮區"
"0","高雄客運鳳山站(澄瀾砲台)","22.62454,120.35698","22.62454","120.35698","高雄市鳳山區"
"0","後庄(鳳屏一路)","22.63743,120.39463","22.63743","120.39463","高雄市大寮區"
"0","後庄農會","22.63627,120.39264","22.63627","120.39264","高雄市大寮區"
"0","新光高中(鳳屏一路)","22.63471,120.38987","22.63471","120.38987","高雄市大寮區"
"0","中庄","22.63082,120.38443","22.63082","120.38443","高雄市大寮區"
"0","埤頂","22.62758,120.3791","22.62758","120.3791","高雄市鳳山區"
"0","鳳山轉運站(捷運大東站)","22.6261,120.36337","22.6261","120.36337","高雄市鳳山區"
"0","上埤頂","22.62658,120.37629","22.62658","120.37629","高雄市鳳山區"
"0","中山東路","22.62625,120.37529","22.62625","120.37529","高雄市鳳山區"
"0","捷運鳳山國中站(郵局)","22.62448,120.37142","22.62448","120.37142","高雄市鳳山區"
"0","通益市場","22.62912,120.3539","22.62912","120.3539","高雄市鳳山區"
"0","中山國小(光復路)","22.62925,120.34996","22.62925","120.34996","高雄市鳳山區"
"0","婦幼館","22.62934,120.34776","22.62934","120.34776","高雄市鳳山區"
"0","興達國小","22.87545,120.19624","22.87545","120.19624","高雄市茄萣區"
"0","覺民路口(澄清路)","22.63746,120.34486","22.63746","120.34486","高雄市三民區"
"0","澄清路","22.64267,120.34608","22.64267","120.34608","高雄市三民區"
"0","鳳山龍山寺","22.6217,120.35984","22.6217","120.35984","高雄市鳳山區"
"0","澄清湖棒球場","22.65522,120.36008","22.65522","120.36008","高雄市鳥松區"
"0","鳥松區公所(中正路)","22.65983,120.36414","22.65983","120.36414","高雄市鳥松區"
"0","十九灣","22.67097,120.36138","22.67097","120.36138","高雄市仁武區"
"0","考潭","22.67702,120.35811","22.67702","120.35811","高雄市仁武區"
"0","灣子內(仁武)","22.68232,120.35504","22.68232","120.35504","高雄市仁武區"
"0","新庄(鳳仁路)","22.69291,120.34968","22.69291","120.34968","高雄市仁武區"
"0","八卦寮","22.69603,120.34825","22.69603","120.34825","高雄市仁武區"
"0","通法寺","22.69888,120.34679","22.69888","120.34679","高雄市仁武區"
"0","仁武區公所(派出所)","22.7015,120.34846","22.7015","120.34846","高雄市仁武區"
"0","黃埔新村","22.62042,120.36436","22.62042","120.36436","高雄市鳳山區"
"0","仁武里","22.70236,120.35213","22.70236","120.35213","高雄市仁武區"
"0","文武橋","22.9868,120.63707","22.9868","120.63707","高雄市六龜區"
"0","安樂一街口","22.70927,120.35315","22.70927","120.35315","高雄市仁武區"
"0","後庄(中正路)","22.71479,120.35206","22.71479","120.35206","高雄市仁武區"
"0","林子邊","22.72239,120.35043","22.72239","120.35043","高雄市大社區"
"0","三奶里","22.72692,120.3484","22.72692","120.3484","高雄市大社區"
"0","大社農會","22.72956,120.34683","22.72956","120.34683","高雄市大社區"
"0","三中路口(三民路)","22.73076,120.34332","22.73076","120.34332","高雄市大社區"
"0","高雄少年法院","22.73096,120.33538","22.73096","120.33538","高雄市楠梓區"
"0","楠梓路口","22.72832,120.33032","22.72832","120.33032","高雄市楠梓區"
"0","東門","22.62365,120.36938","22.62365","120.36938","高雄市鳳山區"
"0","崎漏電信局","22.87458,120.19386","22.87458","120.19386","高雄市茄萣區"
"0","永豐路口","22.60566,120.33413","22.60566","120.33413","高雄市前鎮區"
"0","中一街","22.72077,120.30716","22.72077","120.30716","高雄市楠梓區"
"0","草衙市場","22.57849,120.32236","22.57849","120.32236","高雄市前鎮區"
"0","銘傳路口(九如四路)","22.66576,120.28433","22.66576","120.28433","高雄市鼓山區"
"0","岡山農工(河華路)","22.80128,120.29085","22.80128","120.29085","高雄市岡山區"
"0","捷運鳳山站","22.62598,120.35614","22.62598","120.35614","高雄市鳳山區"
"0","台上街","22.80493,120.29722","22.80493","120.29722","高雄市岡山區"
"0","文山學園","22.64081,120.34879","22.64081","120.34879","高雄市鳳山區"
"0","大埤","22.88042,120.34639","22.88042","120.34639","高雄市阿蓮區"
"0","黃埔四村","22.62233,120.37373","22.62233","120.37373","高雄市鳳山區"
"0","臺鐵內惟站","22.66575,120.28801","22.66575","120.28801","高雄市鼓山區"
"0","赤崁東路(新富光)","22.74207,120.25348","22.74207","120.25348","高雄市梓官區"
"0","民權路","22.73471,120.34862","22.73471","120.34862","高雄市大社區"
"0","八德路一(鳳松路口)","22.63864,120.3624","22.63864","120.3624","高雄市鳳山區"
"0","前鋒社區","22.66734,120.28548","22.66734","120.28548","高雄市鼓山區"
"0","舊鐵橋溼地(三和瓦窯)","22.663,120.4264","22.663","120.4264","高雄市大樹區"
"0","大昌醫院","22.65779,120.31989","22.65779","120.31989","高雄市三民區"
"0","崎漏農會","22.8738,120.19145","22.8738","120.19145","高雄市茄萣區"
"0","五甲三誠路口","22.59221,120.32684","22.59221","120.32684","高雄市鳳山區"
"0","大樹區公所","22.6851,120.41481","22.6851","120.41481","高雄市大樹區"
"0","坔埔","22.65803,120.3848","22.65803","120.3848","高雄市鳥松區"
"0","影劇七村","22.62055,120.38138","22.62055","120.38138","高雄市大寮區"
"0","高碼山莊","22.65821,120.38947","22.65821","120.38947","高雄市鳥松區"
"0","華美","22.65842,120.39191","22.65842","120.39191","高雄市鳥松區"
"0","仁美國小","22.65798,120.3942","22.65798","120.3942","高雄市鳥松區"
"0","井仔腳","22.66837,120.40939","22.66837","120.40939","高雄市大樹區"
"0","小坪頂","22.68069,120.40899","22.68069","120.40899","高雄市大樹區"
"0","龍目","22.68545,120.41644","22.68545","120.41644","高雄市大樹區"
"0","大樹路","22.68713,120.4245","22.68713","120.4245","高雄市大樹區"
"0","大樹市場","22.68814,120.43236","22.68814","120.43236","高雄市大樹區"
"0","商協一號","22.61849,120.3838","22.61849","120.3838","高雄市大寮區"
"0","大樹分駐所","22.69036,120.43318","22.69036","120.43318","高雄市大樹區"
"0","大樹","22.692,120.43246","22.692","120.43246","高雄市大樹區"
"0","水管路口(神農路)","22.65941,120.37306","22.65941","120.37306","高雄市鳥松區"
"0","五甲市場","22.59573,120.33158","22.59573","120.33158","高雄市鳳山區"
"0","岡山交流道","22.78718,120.31856","22.78718","120.31856","高雄市燕巢區"
"0","大社中正路(保社里)","22.74652,120.35078","22.74652","120.35078","高雄市大社區"
"0","吉貝公司","22.73981,120.34851","22.73981","120.34851","高雄市大社區"
"0","中都濕地公園(同盟三路)","22.64865,120.2855","22.64865","120.2855","高雄市三民區"
"0","經五路","22.72164,120.30185","22.72164","120.30185","高雄市楠梓區"
"0","自強三路口(三多四路)","22.61268,120.30098","22.61268","120.30098","高雄市苓雅區"
"0","台貿六村","22.61563,120.38682","22.61563","120.38682","高雄市大寮區"
"0","小港行政中心","22.56514,120.3382","22.56514","120.3382","高雄市小港區"
"0","北汕巷","22.59893,120.27757","22.59893","120.27757","高雄市前鎮區"
"0","鳳源里","22.52464,120.34457","22.52464","120.34457","高雄市小港區"
"0","中山路(中正路口)","22.7319,120.34825","22.7319","120.34825","高雄市大社區"
"0","安招里","22.79086,120.33963","22.79086","120.33963","高雄市燕巢區"
"0","橋頭地檢署","22.73899,120.30478","22.73899","120.30478","高雄市橋頭區"
"0","福山國中","22.67932,120.31457","22.67932","120.31457","高雄市左營區"
"0","明善堂(黃埔路)","22.62298,120.36562","22.62298","120.36562","高雄市鳳山區"
"0","坊崁","22.76147,120.44685","22.76147","120.44685","高雄市大樹區"
"0","統嶺坑","22.75617,120.44774","22.75617","120.44774","高雄市大樹區"
"0","麻竹園","22.74633,120.44707","22.74633","120.44707","高雄市大樹區"
"0","商協二號","22.61389,120.38895","22.61389","120.38895","高雄市大寮區"
"0","大樹農會","22.69094,120.43227","22.69094","120.43227","高雄市大樹區"
"0","興山里","22.69412,120.42545","22.69412","120.42545","高雄市大樹區"
"0","和山里口","22.69703,120.4205","22.69703","120.4205","高雄市大樹區"
"0","山頂崎腳","22.69652,120.4097","22.69652","120.4097","高雄市大樹區"
"0","五叉路口","22.69958,120.40542","22.69958","120.40542","高雄市大樹區"
"0","崎頂","22.7016,120.39617","22.7016","120.39617","高雄市仁武區"
"0","清淨寺A(仁林路)","22.7011,120.39083","22.7011","120.39083","高雄市仁武區"
"0","油庫","22.70115,120.38796","22.70115","120.38796","高雄市仁武區"
"0","磚廠","22.69877,120.37962","22.69877","120.37962","高雄市仁武區"
"0","久保祥公司","22.69201,120.37009","22.69201","120.37009","高雄市仁武區"
"0","山仔頂","22.61103,120.39241","22.61103","120.39241","高雄市大寮區"
"0","東亞漆廠","22.68862,120.36687","22.68862","120.36687","高雄市仁武區"
"0","忠山藥廠","22.68584,120.36414","22.68584","120.36414","高雄市仁武區"
"0","埤內巷","22.68262,120.36427","22.68262","120.36427","高雄市仁武區"
"0","天后宮(成功路)","22.68146,120.3621","22.68146","120.3621","高雄市仁武區"
"0","考潭里","22.67938,120.36195","22.67938","120.36195","高雄市仁武區"
"0","綠園山莊","22.67679,120.36292","22.67679","120.36292","高雄市仁武區"
"0","鞏威新村","22.67439,120.36356","22.67439","120.36356","高雄市仁武區"
"0","經三路口","22.72124,120.30614","22.72124","120.30614","高雄市楠梓區"
"0","建工路","22.64834,120.31897","22.64834","120.31897","高雄市三民區"
"0","西塢食品","22.75037,120.35208","22.75037","120.35208","高雄市大社區"
"0","經五開發路口","22.72045,120.30239","22.72045","120.30239","高雄市楠梓區"
"0","輔英科大","22.60847,120.39478","22.60847","120.39478","高雄市大寮區"
"0","明善堂","22.62358,120.36687","22.62358","120.36687","高雄市鳳山區"
"0","杉林分駐所","22.97439,120.54165","22.97439","120.54165","高雄市杉林區"
"0","大仁路(裕賀牛觀光工廠)","22.77018,120.38329","22.77018","120.38329","高雄市燕巢區"
"0","營房(大樹)","22.67968,120.42592","22.67968","120.42592","高雄市大樹區"
"0","綠陽山莊","22.67391,120.42588","22.67391","120.42588","高雄市大樹區"
"0","竹寮","22.672,120.42602","22.672","120.42602","高雄市大樹區"
"0","雄獅大地","22.66932,120.42603","22.66932","120.42603","高雄市大樹區"
"0","九大加油站","22.65844,120.42476","22.65844","120.42476","高雄市大樹區"
"0","大樹國中","22.65644,120.42265","22.65644","120.42265","高雄市大樹區"
"0","庄內(九曲北極殿)","22.65084,120.42242","22.65084","120.42242","高雄市大樹區"
"0","勵志新城","22.78994,120.29627","22.78994","120.29627","高雄市岡山區"
"0","九曲路","22.64778,120.4205","22.64778","120.4205","高雄市大樹區"
"0","建軍路口","22.62866,120.34153","22.62866","120.34153","高雄市鳳山區"
"0","中正國小","22.63111,120.33441","22.63111","120.33441","高雄市苓雅區"
"0","輔仁路口(建國一路)","22.63184,120.332","22.63184","120.332","高雄市苓雅區"
"0","大仁國中","22.63271,120.32932","22.63271","120.32932","高雄市苓雅區"
"0","福德市場","22.6329,120.32734","22.6329","120.32734","高雄市苓雅區"
"0","聖功醫院","22.63269,120.32461","22.63269","120.32461","高雄市苓雅區"
"0","道明中學","22.63311,120.32276","22.63311","120.32276","高雄市苓雅區"
"0","凱旋路口","22.63396,120.31908","22.63396","120.31908","高雄市三民區"
"0","建國二路","22.63737,120.31221","22.63737","120.31221","高雄市三民區"
"0","大寮","22.60111,120.39938","22.60111","120.39938","高雄市大寮區"
"0","鐵路新村","22.63752,120.30824","22.63752","120.30824","高雄市三民區"
"0","南安國小","22.76443,120.24339","22.76443","120.24339","高雄市彌陀區"
"0","公館(大樹)","22.67703,120.42545","22.67703","120.42545","高雄市大樹區"
"0","翠屏路口(中山路)","22.73165,120.35027","22.73165","120.35027","高雄市大社區"
"0","橋頭地方法院(1)","22.73876,120.30453","22.73876","120.30453","高雄市橋頭區"
"0","山明路(北林路)","22.5643,120.36472","22.5643","120.36472","高雄市小港區"
"0","大寮路口","22.59773,120.40063","22.59773","120.40063","高雄市大寮區"
"0","油管路口","22.60645,120.35445","22.60645","120.35445","高雄市鳳山區"
"0","國校前","22.90326,120.18377","22.90326","120.18377","高雄市茄萣區"
"0","仕豐路","22.75084,120.30804","22.75084","120.30804","高雄市橋頭區"
"0","九甲圍","22.74222,120.29439","22.74222","120.29439","高雄市橋頭區"
"0","甲昌路","22.7388,120.29449","22.7388","120.29449","高雄市橋頭區"
"0","甲圍國小","22.7361,120.29324","22.7361","120.29324","高雄市橋頭區"
"0","中山高中","22.72834,120.29171","22.72834","120.29171","高雄市楠梓區"
"0","左營高中","22.69357,120.29704","22.69357","120.29704","高雄市左營區"
"0","北昌五街口","22.64303,120.37408","22.64303","120.37408","高雄市鳳山區"
"0","左營南站","22.67954,120.28732","22.67954","120.28732","高雄市左營區"
"0","極光精舍","22.59372,120.40752","22.59372","120.40752","高雄市大寮區"
"0","海青工商","22.67478,120.28653","22.67478","120.28653","高雄市左營區"
"0","明誠中學","22.66574,120.29155","22.66574","120.29155","高雄市鼓山區"
"0","海專路口(德賢路)","22.72765,120.30922","22.72765","120.30922","高雄市楠梓區"
"0","立群路口","22.56302,120.35518","22.56302","120.35518","高雄市小港區"
"0","軟體園區","22.6046,120.29933","22.6046","120.29933","高雄市前鎮區"
"0","中興里","22.72476,120.27765","22.72476","120.27765","高雄市楠梓區"
"0","山明里","22.5621,120.3665","22.5621","120.3665","高雄市小港區"
"0","三丘田","22.87775,120.59981","22.87775","120.59981","高雄市六龜區"
"0","紫竹寺","22.99892,120.5518","22.99892","120.5518","高雄市杉林區"
"0","榮佑路","22.68176,120.32083","22.68176","120.32083","高雄市左營區"
"0","新福市場","22.59252,120.41063","22.59252","120.41063","高雄市大寮區"
"0","岡山國小","22.79092,120.29449","22.79092","120.29449","高雄市岡山區"
"0","中正堂(岡山)","22.79077,120.28939","22.79077","120.28939","高雄市岡山區"
"0","大義二路口","22.78744,120.28648","22.78744","120.28648","高雄市岡山區"
"0","醒村","22.78445,120.28423","22.78445","120.28423","高雄市岡山區"
"0","後協","22.78434,120.28229","22.78434","120.28229","高雄市岡山區"
"0","西後協","22.78433,120.27648","22.78433","120.27648","高雄市岡山區"
"0","頂潭路口","22.77905,120.26981","22.77905","120.26981","高雄市岡山區"
"0","福興里","22.77715,120.26919","22.77715","120.26919","高雄市岡山區"
"0","石螺潭","22.7726,120.26843","22.7726","120.26843","高雄市岡山區"
"0","包公廟路口","22.59176,120.41381","22.59176","120.41381","高雄市大寮區"
"0","春木工廠","22.76582,120.26733","22.76582","120.26733","高雄市梓官區"
"0","北梓官","22.76251,120.26684","22.76251","120.26684","高雄市梓官區"
"0","大舍甲農會(大舍西路)","22.74695,120.26151","22.74695","120.26151","高雄市梓官區"
"0","赤崁東路(北赤崁)","22.74045,120.25106","22.74045","120.25106","高雄市梓官區"
"0","赤崁(梓官)","22.73761,120.24765","22.73761","120.24765","高雄市梓官區"
"0","蚵寮國小(南赤崁)","22.73443,120.2494","22.73443","120.2494","高雄市梓官區"
"0","蚵寮教會","22.73336,120.25052","22.73336","120.25052","高雄市梓官區"
"0","茄冬坑","22.735,120.25401","22.735","120.25401","高雄市梓官區"
"0","典寶","22.73699,120.25813","22.73699","120.25813","高雄市梓官區"
"0","典寶橋","22.73832,120.26436","22.73832","120.26436","高雄市梓官區"
"0","大寮國小","22.5911,120.41681","22.5911","120.41681","高雄市大寮區"
"0","北林路","22.56028,120.36815","22.56028","120.36815","高雄市小港區"
"0","新光人壽","22.50016,120.39288","22.50016","120.39288","高雄市林園區"
"0","六龜大橋","22.99665,120.64144","22.99665","120.64144","高雄市六龜區"
"0","南屏路","22.657,120.30007","22.657","120.30007","高雄市鼓山區"
"0","中正西路","22.7824,120.24693","22.7824","120.24693","高雄市彌陀區"
"0","彌壽宮","22.7784,120.24735","22.7784","120.24735","高雄市彌陀區"
"0","彌陀國中(進學路)","22.77616,120.24676","22.77616","120.24676","高雄市彌陀區"
"0","漯底路","22.76917,120.24483","22.76917","120.24483","高雄市彌陀區"
"0","頂厝(彌陀)","22.76542,120.24348","22.76542","120.24348","高雄市彌陀區"
"0","南天宮(彌陀)","22.76073,120.2385","22.76073","120.2385","高雄市彌陀區"
"0","大明街口","22.59086,120.41897","22.59086","120.41897","高雄市大寮區"
"0","南寮","22.76021,120.23667","22.76021","120.23667","高雄市彌陀區"
"0","秀傳醫院","22.7965,120.29453","22.7965","120.29453","高雄市岡山區"
"0","壽華路","22.79727,120.29312","22.79727","120.29312","高雄市岡山區"
"0","空軍機校","22.79919,120.28465","22.79919","120.28465","高雄市岡山區"
"0","育才路口","22.80513,120.27699","22.80513","120.27699","高雄市岡山區"
"0","南本洲","22.80735,120.26524","22.80735","120.26524","高雄市岡山區"
"0","本洲","22.80787,120.26102","22.80787","120.26102","高雄市岡山區"
"0","西本洲","22.80808,120.25847","22.80808","120.25847","高雄市永安區"
"0","工業區(本洲)","22.8083,120.25162","22.8083","120.25162","高雄市永安區"
"0","維新-岡","22.80827,120.24677","22.80827","120.24677","高雄市永安區"
"0","上寮路口(大寮路)","22.59194,120.42199","22.59194","120.42199","高雄市大寮區"
"0","西維新","22.80943,120.24329","22.80943","120.24329","高雄市永安區"
"0","天文宮","22.81336,120.24279","22.81336","120.24279","高雄市永安區"
"0","南天宮(永安)","22.81653,120.24152","22.81653","120.24152","高雄市永安區"
"0","牧場","22.81874,120.24044","22.81874","120.24044","高雄市永安區"
"0","永安國中","22.82349,120.23828","22.82349","120.23828","高雄市永安區"
"0","永安","22.81856,120.22627","22.81856","120.22627","高雄市永安區"
"0","永安國小","22.81589,120.22437","22.81589","120.22437","高雄市永安區"
"0","西永安","22.81677,120.22139","22.81677","120.22139","高雄市永安區"
"0","新港","22.81779,120.21064","22.81779","120.21064","高雄市永安區"
"0","新港國小","22.82192,120.20879","22.82192","120.20879","高雄市永安區"
"0","北新港","22.82839,120.20657","22.82839","120.20657","高雄市永安區"
"0","鹽村","22.83349,120.2086","22.83349","120.2086","高雄市永安區"
"0","華中路","22.58986,120.42875","22.58986","120.42875","高雄市大寮區"
"0","鹽田","22.83405,120.20971","22.83405","120.20971","高雄市永安區"
"0","塭仔邊","22.82965,120.21314","22.82965","120.21314","高雄市永安區"
"0","永仁公園","22.68259,120.33212","22.68259","120.33212","高雄市仁武區"
"0","六張犁","22.90867,120.49043","22.90867","120.49043","高雄市旗山區"
"0","圓富里","22.91598,120.49455","22.91598","120.49455","高雄市旗山區"
"0","口隘庄內","22.92029,120.49629","22.92029","120.49629","高雄市旗山區"
"0","口隘","22.92235,120.49714","22.92235","120.49714","高雄市旗山區"
"0","圓潭農會","22.92693,120.50024","22.92693","120.50024","高雄市旗山區"
"0","圓潭農場","22.92939,120.50205","22.92939","120.50205","高雄市旗山區"
"0","圓潭","22.9325,120.5033","22.9325","120.5033","高雄市旗山區"
"0","中隘","22.93943,120.50671","22.93943","120.50671","高雄市旗山區"
"0","大發工業區管理中心","22.58221,120.42875","22.58221","120.42875","高雄市大寮區"
"0","埔姜林","22.94907,120.51104","22.94907","120.51104","高雄市旗山區"
"0","大林(旗甲路四段)","22.95954,120.51578","22.95954","120.51578","高雄市旗山區"
"0","旗甲二路","22.96078,120.51791","22.96078","120.51791","高雄市旗山區"
"0","刺仔寮","22.96125,120.52865","22.96125","120.52865","高雄市杉林區"
"0","杉林農會","22.9643,120.53211","22.9643","120.53211","高雄市杉林區"
"0","月眉","22.96754,120.5337","22.96754","120.5337","高雄市杉林區"
"0","電力公司(杉林)","22.96992,120.53612","22.96992","120.53612","高雄市杉林區"
"0","杉林國中","22.97074,120.53877","22.97074","120.53877","高雄市杉林區"
"0","杉林區公所(衛生所)","22.97194,120.53996","22.97194","120.53996","高雄市杉林區"
"0","中興北路一","22.69317,120.43295","22.69317","120.43295","高雄市大樹區"
"0","潮寮活動中心","22.56595,120.42867","22.56595","120.42867","高雄市大寮區"
"0","南河","22.97769,120.54453","22.97769","120.54453","高雄市杉林區"
"0","杉林里","22.99867,120.54988","22.99867","120.54988","高雄市杉林區"
"0","杉林角","22.99904,120.55785","22.99904","120.55785","高雄市杉林區"
"0","內灣","23.0068,120.56979","23.0068","120.56979","高雄市杉林區"
"0","白水泉","23.01704,120.5547","23.01704","120.5547","高雄市杉林區"
"0","木梓國小","23.01948,120.54632","23.01948","120.54632","高雄市杉林區"
"0","木梓","23.02108,120.54394","23.02108","120.54394","高雄市杉林區"
"0","潮寮國中","22.56427,120.4251","22.56427","120.4251","高雄市大寮區"
"0","六龜農會(光復路)","22.99545,120.63514","22.99545","120.63514","高雄市六龜區"
"0","六龜戲院前","22.99528,120.6377","22.99528","120.6377","高雄市六龜區"
"0","潮寮","22.5626,120.42855","22.5626","120.42855","高雄市大寮區"
"0","興瓏","23.00512,120.64851","23.00512","120.64851","高雄市六龜區"
"0","育幼院","23.00599,120.65601","23.00599","120.65601","高雄市六龜區"
"0","舊潭","23.01248,120.66546","23.01248","120.66546","高雄市六龜區"
"0","北舊潭","23.01569,120.66545","23.01569","120.66545","高雄市六龜區"
"0","獅額頭","23.02234,120.66417","23.02234","120.66417","高雄市六龜區"
"0","新發","23.02837,120.66338","23.02837","120.66338","高雄市六龜區"
"0","新發國小","23.03169,120.66374","23.03169","120.66374","高雄市六龜區"
"0","灰窯(六龜)","23.03528,120.66524","23.03528","120.66524","高雄市六龜區"
"0","頂新發","23.04314,120.66776","23.04314","120.66776","高雄市六龜區"
"0","水冬瓜","23.05253,120.66756","23.05253","120.66756","高雄市六龜區"
"0","會結","22.55439,120.42323","22.55439","120.42323","高雄市大寮區"
"0","番仔埔","23.05966,120.6694","23.05966","120.6694","高雄市六龜區"
"0","下崁","23.06961,120.67281","23.06961","120.67281","高雄市六龜區"
"0","荖濃","23.07201,120.67303","23.07201","120.67303","高雄市六龜區"
"0","荖濃國小","23.07311,120.673","23.07311","120.673","高雄市六龜區"
"0","下長份","23.07767,120.67556","23.07767","120.67556","高雄市六龜區"
"0","長份","23.07942,120.67674","23.07942","120.67674","高雄市六龜區"
"0","頂濃路口","23.08309,120.679","23.08309","120.679","高雄市六龜區"
"0","外埔","23.08499,120.67944","23.08499","120.67944","高雄市六龜區"
"0","頂荖濃","23.08639,120.6799","23.08639","120.6799","高雄市六龜區"
"0","大圳","23.08999,120.68288","23.08999","120.68288","高雄市六龜區"
"0","昭明變電所站","22.54832,120.41156","22.54832","120.41156","高雄市大寮區"
"0","建山路口","23.09624,120.6826","23.09624","120.6826","高雄市桃源區"
"0","大埔路口","23.10101,120.68341","23.10101","120.68341","高雄市桃源區"
"0","妙通寺","23.10003,120.68594","23.10003","120.68594","高雄市桃源區"
"0","羨仔腳","23.10531,120.69352","23.10531","120.69352","高雄市桃源區"
"0","寶來","23.10829,120.69942","23.10829","120.69942","高雄市六龜區"
"0","露營區","23.0503,120.67516","23.0503","120.67516","高雄市六龜區"
"0","寶來國中","23.11059,120.70299","23.11059","120.70299","高雄市六龜區"
"0","囉囉埔","23.11143,120.71228","23.11143","120.71228","高雄市六龜區"
"0","檢查哨","23.12001,120.70992","23.12001","120.70992","高雄市桃源區"
"0","長老教會","23.13058,120.71922","23.13058","120.71922","高雄市桃源區"
"0","高中二村","23.13412,120.72309","23.13412","120.72309","高雄市桃源區"
"0","大肚關","23.13857,120.7391","23.13857","120.7391","高雄市桃源區"
"0","舊社","23.14367,120.74806","23.14367","120.74806","高雄市桃源區"
"0","深溝","23.15278,120.75889","23.15278","120.75889","高雄市桃源區"
"0","桃源區公所(衛生所)","23.1589,120.76401","23.1589","120.76401","高雄市桃源區"
"0","桃源","23.15948,120.76572","23.15948","120.76572","高雄市桃源區"
"0","義仁路","22.54646,120.41004","22.54646","120.41004","高雄市大寮區"
"0","六龜農會(太平路)","22.99561,120.63505","22.99561","120.63505","高雄市六龜區"
"0","美濃站","22.90168,120.5416","22.90168","120.5416","高雄市美濃區"
"0","美濃區公所(衛生所)","22.89519,120.54252","22.89519","120.54252","高雄市美濃區"
"0","水廠(中壇)","22.88929,120.5369","22.88929","120.5369","高雄市美濃區"
"0","中壇","22.88715,120.53455","22.88715","120.53455","高雄市美濃區"
"0","中美旅社","22.88641,120.53265","22.88641","120.53265","高雄市美濃區"
"0","中壇廟","22.8866,120.52947","22.8866","120.52947","高雄市美濃區"
"0","昭明派出所","22.54471,120.40628","22.54471","120.40628","高雄市大寮區"
"0","中壇橋","22.88661,120.52601","22.88661","120.52601","高雄市美濃區"
"0","旗美商工","22.88627,120.51955","22.88627","120.51955","高雄市美濃區"
"0","崙仔頂","22.88545,120.50907","22.88545","120.50907","高雄市美濃區"
"0","旗山紙廠","22.88478,120.50288","22.88478","120.50288","高雄市旗山區"
"0","一號橋(中壇)","22.88355,120.49731","22.88355","120.49731","高雄市旗山區"
"0","橋頭地方法院(2)","22.7373,120.3042","22.7373","120.3042","高雄市橋頭區"
"0","金鴻山金寶塔","22.7169,120.39103","22.7169","120.39103","高雄市仁武區"
"0","灣仔內","22.64879,120.3149","22.64879","120.3149","高雄市三民區"
"0","三民公園(博愛路口)","22.64535,120.30394","22.64535","120.30394","高雄市三民區"
"0","明德橋","23.20228,120.79626","23.20228","120.79626","高雄市桃源區"
"0","圓通寺","22.54175,120.40434","22.54175","120.40434","高雄市大寮區"
"0","中山大學行政大樓","22.625,120.26591","22.625","120.26591","高雄市鼓山區"
"0","土庫三路(清豐路口)","22.7392,120.32829","22.7392","120.32829","高雄市楠梓區"
"0","東六新經路口","22.72457,120.30842","22.72457","120.30842","高雄市楠梓區"
"0","中正高中","22.626,120.33798","22.626","120.33798","高雄市苓雅區"
"0","紐約57街","22.6632,120.28843","22.6632","120.28843","高雄市鼓山區"
"0","中興北路","22.69534,120.43305","22.69534","120.43305","高雄市大樹區"
"0","中洲二路口","22.58289,120.29077","22.58289","120.29077","高雄市前鎮區"
"0","高師大燕巢校區(歸燕食巢)","22.787,120.40476","22.787","120.40476","高雄市燕巢區"
"0","天鳳宮","22.58196,120.29144","22.58196","120.29144","高雄市前鎮區"
"0","變電所(十全)","22.64615,120.29346","22.64615","120.29346","高雄市三民區"
"0","港後路口","22.56713,120.33215","22.56713","120.33215","高雄市小港區"
"0","三陽造船廠","22.57986,120.29315","22.57986","120.29315","高雄市前鎮區"
"0","昭明","22.53971,120.40366","22.53971","120.40366","高雄市大寮區"
"0","佛公","22.57524,120.32534","22.57524","120.32534","高雄市前鎮區"
"0","湖底橋(杉林)","22.98129,120.55347","22.98129","120.55347","高雄市杉林區"
"0","隘丁寮","22.98286,120.55574","22.98286","120.55574","高雄市杉林區"
"0","球場路口","22.65506,120.33652","22.65506","120.33652","高雄市鳥松區"
"0","中正路(通安路口)","22.73127,120.25432","22.73127","120.25432","高雄市梓官區"
"0","中洲國小","22.57807,120.29454","22.57807","120.29454","高雄市前鎮區"
"0","哨船街","22.62258,120.26941","22.62258","120.26941","高雄市鼓山區"
"0","甲仙站","23.08258,120.58781","23.08258","120.58781","高雄市甲仙區"
"0","濟公廟","23.08245,120.60016","23.08245","120.60016","高雄市甲仙區"
"0","鳳林一路","22.5364,120.40166","22.5364","120.40166","高雄市大寮區"
"0","咖啡村","23.07526,120.61118","23.07526","120.61118","高雄市甲仙區"
"0","鹽桑坑","23.07787,120.6211","23.07787","120.6211","高雄市甲仙區"
"0","白雲橋","23.0631,120.6216","23.0631","120.6216","高雄市甲仙區"
"0","上直瀨","23.07052,120.6465","23.07052","120.6465","高雄市六龜區"
"0","下直瀨","23.07051,120.65351","23.07051","120.65351","高雄市六龜區"
"0","上智橋","23.07138,120.66018","23.07138","120.66018","高雄市六龜區"
"0","高中里","23.12971,120.71783","23.12971","120.71783","高雄市桃源區"
"0","哨船頭","22.61975,120.26926","22.61975","120.26926","高雄市鼓山區"
"0","仁武高中","22.70147,120.35454","22.70147","120.35454","高雄市仁武區"
"0","大順路口(建工路)","22.64915,120.32278","22.64915","120.32278","高雄市三民區"
"0","林內橋","22.53411,120.4009","22.53411","120.4009","高雄市林園區"
"0","漁故鄉(蚵仔寮漁港)","22.7275,120.25761","22.7275","120.25761","高雄市梓官區"
"0","水安里","22.66266,120.41093","22.66266","120.41093","高雄市大樹區"
"0","水寮","22.66551,120.40958","22.66551","120.40958","高雄市大樹區"
"0","博愛職訓中心","22.64661,120.28939","22.64661","120.28939","高雄市三民區"
"0","營口路","22.5698,120.37089","22.5698","120.37089","高雄市小港區"
"0","海洋探索館(旗津漁港停車場)","22.58942,120.28751","22.58942","120.28751","高雄市前鎮區"
"0","岡山農工(嘉新西路)","22.80221,120.29303","22.80221","120.29303","高雄市岡山區"
"0","中興里活動中心","22.57437,120.29736","22.57437","120.29736","高雄市前鎮區"
"0","苗圃","22.88916,120.6241","22.88916","120.6241","高雄市六龜區"
"0","水寮中山路","22.66705,120.40911","22.66705","120.40911","高雄市大樹區"
"0","經六路","22.72178,120.30035","22.72178","120.30035","高雄市楠梓區"
"0","林內","22.53177,120.39957","22.53177","120.39957","高雄市林園區"
"0","高師大燕巢校區(致理大樓)","22.78906,120.40597","22.78906","120.40597","高雄市燕巢區"
"0","和平里","23.0386,120.66605","23.0386","120.66605","高雄市六龜區"
"0","朝天宮(旗文路)","22.90433,120.47923","22.90433","120.47923","高雄市旗山區"
"0","嶺頂","22.90826,120.47456","22.90826","120.47456","高雄市內門區"
"0","石溝","22.91133,120.46624","22.91133","120.46624","高雄市內門區"
"0","二層橋","22.91712,120.46231","22.91712","120.46231","高雄市內門區"
"0","農會(內門)","22.91737,120.45692","22.91737","120.45692","高雄市內門區"
"0","觀音亭","22.91833,120.45387","22.91833","120.45387","高雄市內門區"
"0","中埔","22.92002,120.45116","22.92002","120.45116","高雄市內門區"
"0","內門國中","22.92253,120.45337","22.92253","120.45337","高雄市內門區"
"0","中厝","22.52949,120.39886","22.52949","120.39886","高雄市林園區"
"0","中埔頭","22.92349,120.45396","22.92349","120.45396","高雄市內門區"
"0","菜公坑","22.92736,120.45675","22.92736","120.45675","高雄市內門區"
"0","內埔橋","22.93178,120.4596","22.93178","120.4596","高雄市內門區"
"0","十三甲","22.93676,120.46151","22.93676","120.46151","高雄市內門區"
"0","內門國小","22.93957,120.46144","22.93957","120.46144","高雄市內門區"
"0","內門區公所","22.94165,120.46234","22.94165","120.46234","高雄市內門區"
"0","內門","22.94509,120.4637","22.94509","120.4637","高雄市內門區"
"0","內湖","22.9616,120.47184","22.9616","120.47184","高雄市內門區"
"0","蘇遠埔","22.96688,120.46814","22.96688","120.46814","高雄市內門區"
"0","潭頭","22.52636,120.39718","22.52636","120.39718","高雄市林園區"
"0","木柵","22.97558,120.46876","22.97558","120.46876","高雄市內門區"
"0","頂寮橋","22.98219,120.46961","22.98219","120.46961","高雄市內門區"
"0","椰樹橋","22.98934,120.46886","22.98934","120.46886","高雄市內門區"
"0","內興里","22.99359,120.46728","22.99359","120.46728","高雄市內門區"
"0","分水嶺","23.00086,120.46835","23.00086","120.46835","高雄市內門區"
"0","茄冬橋","23.00517,120.46871","23.00517","120.46871","區"
"0","金馬寮","23.00834,120.4701","23.00834","120.4701","區"
"0","北頭","23.01571,120.47259","23.01571","120.47259","區"